{
"type": "FeatureCollection",
"name": "Hospitals%2C_Wake_County_and_Surrounding",
"crs": { "type": "name", "properties": { "name": "urn:ogc:def:crs:OGC:1.3:CRS84" } },
"features": [
{ "type": "Feature", "properties": { "OBJECTID": 357, "ID": 0, "ADDRESS": "3000 New Bern Ave", "FACILITY": "Hospital", "CITY": "Raleigh", "NAME": "WakeMed Raleigh Campus", "SERVICES": "Emergency\/Trauma", "COUNTY": "Wake", "POINT_X": -78.58801556, "POINT_Y": 35.784702 }, "geometry": { "type": "Point", "coordinates": [ -78.588018156387605, 35.784709149494198 ] } },
{ "type": "Feature", "properties": { "OBJECTID": 358, "ID": 0, "ADDRESS": "3400 Wake Forest Rd", "FACILITY": "Hospital", "CITY": "Raleigh", "NAME": "Duke Health Raleigh Hospital", "SERVICES": "Emergency", "COUNTY": "Wake", "POINT_X": -78.61862136000001, "POINT_Y": 35.828792 }, "geometry": { "type": "Point", "coordinates": [ -78.618623965031901, 35.828798862173002 ] } },
{ "type": "Feature", "properties": { "OBJECTID": 359, "ID": 0, "ADDRESS": "4420 Lake Boone Tr", "FACILITY": "Hospital", "CITY": "Raleigh", "NAME": "Rex Healthcare", "SERVICES": "Emergency", "COUNTY": "Wake", "POINT_X": -78.70277354, "POINT_Y": 35.817613 }, "geometry": { "type": "Point", "coordinates": [ -78.702776170694094, 35.817620018673999 ] } },
{ "type": "Feature", "properties": { "OBJECTID": 360, "ID": 0, "ADDRESS": "1900 Kildaire Farm Rd", "FACILITY": "Hospital", "CITY": "Cary", "NAME": "WakeMed Cary Hospital", "SERVICES": "Emergency", "COUNTY": "Wake", "POINT_X": -78.78151557, "POINT_Y": 35.740016 }, "geometry": { "type": "Point", "coordinates": [ -78.781518220714005, 35.740022724107497 ] } },
{ "type": "Feature", "properties": { "OBJECTID": 361, "ID": 0, "ADDRESS": "10000 Falls of Neuse Rd", "FACILITY": "Hospital", "CITY": "Raleigh", "NAME": "WakeMed North Healthplex", "SERVICES": "Emergency", "COUNTY": "Wake", "POINT_X": -78.59798074, "POINT_Y": 35.909229 }, "geometry": { "type": "Point", "coordinates": [ -78.597983343415393, 35.909235677656802 ] } },
{ "type": "Feature", "properties": { "OBJECTID": 362, "ID": 0, "ADDRESS": "8001 T W Alexander Dr", "FACILITY": "Other", "CITY": "Raleigh", "NAME": "WakeMed Brier Creek Healthplex", "SERVICES": "Emergency", "COUNTY": "Wake", "POINT_X": -78.78345488, "POINT_Y": 35.917703 }, "geometry": { "type": "Point", "coordinates": [ -78.783457538436906, 35.917710339066403 ] } },
{ "type": "Feature", "properties": { "OBJECTID": 363, "ID": 0, "ADDRESS": "120 Healthplex Way", "FACILITY": "Other", "CITY": "Apex", "NAME": "WakeMed Apex Healthplex", "SERVICES": "Emergency", "COUNTY": "Wake", "POINT_X": -78.868, "POINT_Y": 35.739 }, "geometry": { "type": "Point", "coordinates": [ -78.867629555225705, 35.738929687171897 ] } },
{ "type": "Feature", "properties": { "OBJECTID": 364, "ID": 0, "ADDRESS": "3643 N Roxboro Rd", "FACILITY": "Hospital", "CITY": "Durham", "NAME": "Durham Regional Hospital", "SERVICES": "Emergency", "COUNTY": "Durham", "POINT_X": -78.89659, "POINT_Y": 36.03793 }, "geometry": { "type": "Point", "coordinates": [ -78.896592699641303, 36.037937122632201 ] } },
{ "type": "Feature", "properties": { "OBJECTID": 365, "ID": 0, "ADDRESS": "2301 Erwin Rd", "FACILITY": "Hospital", "CITY": "Durham", "NAME": "Duke University Hospital", "SERVICES": "Emergency\/Trauma", "COUNTY": "Durham", "POINT_X": -78.935308, "POINT_Y": 36.00792 }, "geometry": { "type": "Point", "coordinates": [ -78.935310711024101, 36.007927116926098 ] } },
{ "type": "Feature", "properties": { "OBJECTID": 366, "ID": 0, "ADDRESS": "509 N Brightleaf Blvd", "FACILITY": "Hospital", "CITY": "Smithfield", "NAME": "Johnston Memorial Smithfield", "SERVICES": "Emergency", "COUNTY": "Johnston", "POINT_X": -78.333144, "POINT_Y": 35.514403 }, "geometry": { "type": "Point", "coordinates": [ -78.333146501674406, 35.514410032833197 ] } },
{ "type": "Feature", "properties": { "OBJECTID": 367, "ID": 0, "ADDRESS": "101 Manning DR", "FACILITY": "Hospital", "CITY": "Chapel Hill", "NAME": "N C Memorial Hospital", "SERVICES": "Emergency\/Trauma", "COUNTY": "Orange", "POINT_X": -79.0491146, "POINT_Y": 35.904312 }, "geometry": { "type": "Point", "coordinates": [ -79.049117340450294, 35.904318891111103 ] } },
{ "type": "Feature", "properties": { "OBJECTID": 368, "ID": 0, "ADDRESS": "2138 NC Hwy 42 W", "FACILITY": "Other", "CITY": "Clayton", "NAME": "Johnston Memorial Clayton", "SERVICES": "Emergency", "COUNTY": "Johnston", "POINT_X": -78.50327514, "POINT_Y": 35.630255 }, "geometry": { "type": "Point", "coordinates": [ -78.503277694897605, 35.630261679887099 ] } },
{ "type": "Feature", "properties": { "OBJECTID": 641, "ID": 0, "ADDRESS": "215 Brightwater Dr", "FACILITY": "Hospital", "CITY": "Lillington", "NAME": "Central Harnett Hospital", "SERVICES": "Emergency", "COUNTY": "Harnett", "POINT_X": -78.809343, "POINT_Y": 35.424589 }, "geometry": { "type": "Point", "coordinates": [ -78.809345894896296, 35.424596387465897 ] } },
{ "type": "Feature", "properties": { "OBJECTID": 642, "ID": 0, "ADDRESS": "800 Tilghman Dr", "FACILITY": "Hospital", "CITY": "Dunn", "NAME": "Betsy Johnson Regional Hosp", "SERVICES": "Emergency", "COUNTY": "Harnett", "POINT_X": -78.6347374, "POINT_Y": 35.30683 }, "geometry": { "type": "Point", "coordinates": [ -78.633835068105498, 35.306494995352601 ] } },
{ "type": "Feature", "properties": { "OBJECTID": 643, "ID": 0, "ADDRESS": "1010 College St", "FACILITY": "Hospital", "CITY": "Oxford", "NAME": "Granville Medical Center", "SERVICES": "Emergency", "COUNTY": "Granville", "POINT_X": -78.5934078, "POINT_Y": 36.326279 }, "geometry": { "type": "Point", "coordinates": [ -78.593922727273295, 36.3261510620802 ] } },
{ "type": "Feature", "properties": { "OBJECTID": 644, "ID": 0, "ADDRESS": "508 Fulton St", "FACILITY": "Hospital", "CITY": "Durham", "NAME": "Durham VA Medical Center", "SERVICES": "Emergency", "COUNTY": "Durham", "POINT_X": -78.938, "POINT_Y": 36.009 }, "geometry": { "type": "Point", "coordinates": [ -78.937572153382206, 36.009233341388999 ] } },
{ "type": "Feature", "properties": { "OBJECTID": 645, "ID": 0, "ADDRESS": "400 US 70 Hwy E", "FACILITY": "Other", "CITY": "Garner", "NAME": "WakeMed Garner Healthplex", "SERVICES": "Emergency", "COUNTY": "Wake", "POINT_X": -78.596347, "POINT_Y": 35.699031 }, "geometry": { "type": "Point", "coordinates": [ -78.596349503664698, 35.699039375859698 ] } }
]
}
